id,latitud,longitud,nombre
1,4.6286,-74.0645,Universidad Javeriana
2,4.6283,-74.0632,Hospital San Ignacio
3,4.6298,-74.0670,Colegio San Bartolome
4,4.6310,-74.0625,Estadio Nemesio Camacho El Campin
5,4.6350,-74.0629,Parque Nacional
6,4.6320,-74.0710,Museo Nacional
7,4.6397,-74.0557,Centro Comercial Andino
8,4.6420,-74.0640,Torre Colpatria