id,latitud,longitud,nombre
1,4.6286,-74.0645,Universidad Javeriana
2,4.6350,-74.0629,Parque Nacional
3,4.6397,-74.0557,Centro Comercial Andino
4,4.6320,-74.0710,Museo Nacional
5,4.6250,-74.0680,Planetario de Bogota